,City,Country,Lat,Lng,Max Temp (F),Cloudiness,Date,Humidity,Wind Speed
0,Hermanus,ZA,-34.4187,19.2345,59.81,22,1666373509,73,10.65
1,Luena,AO,-11.7833,19.9167,74.98,89,1666373529,40,3.33
2,Rikitea,PF,-23.1203,-134.9692,71.26,3,1666373530,72,22.95
3,Savonlinna,FI,61.8699,28.88,30.25,20,1666373530,93,2.3
4,Hobart,AU,-42.8794,147.3294,62.46,100,1666373402,94,5.75
5,Naugachhia,IN,25.4,87.1,73.56,0,1666373530,65,3.33
6,Avarua,CK,-21.2078,-159.775,77.05,75,1666373531,88,16.11
7,Puerto Baquerizo Moreno,EC,-0.9,-89.6,74.39,40,1666373531,73,16.11
8,Bluff,NZ,-46.6,168.3333,41.61,9,1666373531,83,8.46
9,Okhotsk,RU,59.3833,143.3,24.21,96,1666373532,62,14.58
10,Kapaa,US,22.0752,-159.319,77.32,75,1666373532,86,13.8
11,Porto Nacional,BR,-10.7081,-48.4172,102.63,100,1666373532,19,3.76
12,São João da Barra,BR,-21.6403,-41.0511,76.93,64,1666373533,79,25.12
13,Areosa,PT,41.7178,-8.8571,62.17,48,1666373533,90,15.28
14,Tuktoyaktuk,CA,69.4541,-133.0374,21.2,75,1666373534,79,11.5
15,Qaanaaq,GL,77.484,-69.3632,-1.44,0,1666373534,57,9.55
16,Bengkulu,ID,-3.8004,102.2655,75.72,100,1666373534,91,3.71
17,Namatanai,PG,-3.6667,152.4333,78.73,71,1666373535,82,2.39
18,Kaihua,CN,23.3687,104.28,60.31,62,1666373535,96,2.39
19,Ponta Delgada,PT,37.7333,-25.6667,68.72,20,1666373536,60,23.02
20,Parabel',RU,58.6978,81.4825,39.2,95,1666373536,92,10.85
21,Kavieng,PG,-2.5744,150.7967,81.43,84,1666373537,73,5.95
22,Yellowknife,CA,62.456,-114.3525,30.72,75,1666373291,80,10.36
23,Arraial do Cabo,BR,-22.9661,-42.0278,74.07,99,1666373537,87,15.77
24,Lompoc,US,34.6391,-120.4579,63.61,100,1666373537,96,0.0
25,Ushuaia,AR,-54.8,-68.3,49.62,75,1666373293,49,19.57
26,San Andrés,CO,12.5847,-81.7006,87.82,40,1666373538,70,11.5
27,Codrington,AU,-38.2667,141.9667,59.13,100,1666373538,99,3.47
28,Saskylakh,RU,71.9167,114.0833,5.61,71,1666373539,98,4.23
29,Cape Town,ZA,-33.9258,18.4232,64.35,0,1666373525,72,26.46
30,Tura,IN,25.5198,90.2201,68.47,0,1666373540,76,4.9
31,Hithadhoo,MV,-0.6,73.0833,80.82,100,1666373541,79,8.28
32,Sekichō-furumaya,JP,34.85,136.4,59.92,100,1666373541,79,1.45
33,Ribeira Grande,PT,38.5167,-28.7,68.4,75,1666373541,64,20.71
34,Aklavik,CA,68.2191,-135.0107,23.0,100,1666373542,93,2.3
35,Jamestown,US,42.097,-79.2353,60.39,0,1666373101,37,14.97
36,Polovinnoye,RU,54.7914,65.9864,39.18,84,1666373542,90,5.46
37,Nyrob,RU,60.733,56.7202,28.36,54,1666373542,90,8.03
38,Khatanga,RU,71.9667,102.5,3.09,65,1666373543,96,2.35
39,Khon Kaen,TH,16.5,102.0833,71.91,37,1666373543,91,2.64
40,Poum,NC,-20.2333,164.0167,76.1,100,1666373543,74,20.22
41,George Town,MY,5.4112,100.3354,79.95,40,1666373299,93,5.75
42,Taltal,CL,-25.4,-70.4833,62.71,17,1666373544,63,4.97
43,City of San Pedro,PH,14.35,121.0167,81.63,40,1666373544,85,4.61
44,Ponta do Sol,PT,32.6667,-17.1,76.01,98,1666373545,90,4.36
45,Sandwick,GB,60.0,-1.25,51.62,100,1666373545,100,17.27
46,Atuona,PF,-9.8,-139.0333,76.59,97,1666373545,69,16.8
47,Mataura,NZ,-46.1927,168.8643,32.95,5,1666373546,96,2.24
48,Karanganyar,ID,-6.7072,111.0834,77.13,100,1666373546,91,5.21
49,Kericho,KE,-0.3677,35.2831,57.56,100,1666373546,72,4.7
50,Saint-Augustin,CA,51.226,-58.6502,53.31,69,1666373546,53,22.53
51,Busselton,AU,-33.65,115.3333,53.62,69,1666373547,80,6.53
52,Cabo San Lucas,MX,22.8909,-109.9124,90.61,24,1666373466,71,3.0
53,Kosa,RU,59.9445,54.9977,28.51,59,1666373547,84,9.19
54,Puerto Ayora,EC,-0.7393,-90.3518,75.16,93,1666373547,88,5.99
55,Touros,BR,-5.1989,-35.4608,83.37,70,1666373548,58,17.92
56,Saldanha,ZA,-33.0117,17.9442,62.65,28,1666373548,75,29.42
57,Iqaluit,CA,63.7506,-68.5145,37.13,75,1666373549,86,20.71
58,Nome,US,64.5011,-165.4064,33.87,75,1666373549,93,5.75
59,Caravelas,BR,-17.7125,-39.2481,80.82,84,1666373549,63,11.92
60,Leningradskiy,RU,69.3833,178.4167,26.38,100,1666373550,98,2.33
61,Yerbogachën,RU,61.2767,108.0108,28.18,91,1666373550,92,3.62
62,Airai,TL,-8.9266,125.4092,62.31,60,1666373551,89,0.69
63,São Félix do Xingu,BR,-6.6447,-51.995,98.29,77,1666373551,29,1.72
64,Port Alfred,ZA,-33.5906,26.891,68.18,99,1666373551,92,1.99
65,Kaitangata,NZ,-46.2817,169.8464,36.03,5,1666373552,89,5.28
66,Lata,PT,40.1629,-8.3327,65.91,87,1666373552,89,5.14
67,Ahipara,NZ,-35.1667,173.1667,51.46,8,1666373552,92,6.4
68,Ambon City,ID,-3.6954,128.1814,75.34,64,1666373553,94,6.91
69,Otofuke,JP,42.9917,143.2003,48.09,6,1666373553,87,0.65
70,Tchibanga,GA,-2.85,11.0333,73.27,92,1666373553,95,2.91
71,Bambous Virieux,MU,-20.3428,57.7575,73.65,40,1666373554,83,14.97
72,Port Elizabeth,ZA,-33.918,25.5701,64.69,100,1666373554,97,9.22
73,Albany,US,42.6001,-73.9662,58.78,18,1666373534,36,1.01
74,Ca Mau,VN,9.1769,105.15,76.15,88,1666373280,94,5.19
75,Krasnoarmiys'k,UA,48.282,37.1758,40.84,10,1666373417,67,5.48
76,Carnarvon,AU,-24.8667,113.6333,66.63,0,1666373554,80,16.4
77,Faanui,PF,-16.4833,-151.75,79.3,10,1666373555,75,17.85
78,Verkhnyaya Inta,RU,65.9811,60.3094,32.2,100,1666373555,98,14.56
79,Dandong,CN,40.1292,124.3947,53.01,80,1666373556,95,3.44
80,Saraland,US,30.8207,-88.0706,77.81,0,1666373556,45,3.04
81,Nikolskoye,RU,59.7035,30.7861,42.69,100,1666373556,93,3.15
82,Thompson,CA,55.7435,-97.8558,39.36,75,1666373431,56,14.97
83,Nouakchott,MR,18.0858,-15.9785,93.13,19,1666373557,59,7.96
84,Farah,AF,32.5,62.5,64.17,57,1666373557,14,2.04
85,Baiyin,CN,36.5583,104.2081,47.77,69,1666373557,38,1.14
86,Port Moresby,PG,-9.4431,147.1797,76.42,40,1666373558,94,3.44
87,Chui,UY,-33.6971,-53.4616,65.34,100,1666373558,78,10.11
88,Xinzhou,CN,38.4092,112.7333,52.03,43,1666373558,28,4.27
89,Ballina,AU,-28.8667,153.5667,66.02,100,1666373560,99,13.29
90,Severo-Kuril'sk,RU,50.6789,156.125,40.21,59,1666373560,78,12.97
91,Alice Springs,AU,-23.7,133.8833,62.15,0,1666373371,59,0.0
92,Watsa,CD,3.0372,29.5355,65.86,99,1666373560,98,1.74
93,São Filipe,CV,14.8961,-24.4956,78.87,57,1666373561,77,5.28
94,Talas,TR,38.6908,35.5538,47.07,75,1666373561,66,4.61
95,Takoradze,GH,4.8845,-1.7554,78.8,99,1666373561,82,10.45
96,Jamundí,CO,3.2607,-76.535,83.28,96,1666373562,66,1.43
97,Lagoa,PT,39.05,-27.9833,65.64,99,1666373562,79,29.26
98,Naze,JP,28.3667,129.4833,76.12,98,1666373562,85,15.64
99,Dikson,RU,73.5069,80.5464,31.78,100,1666373563,93,10.07
100,Arlit,NE,18.7369,7.3853,85.5,2,1666373563,13,18.9
101,Makkah al Mukarramah,SA,21.4267,39.8261,83.86,0,1666373526,53,3.69
102,Narsaq,GL,60.9167,-46.05,34.02,100,1666373563,98,9.13
103,Beringovskiy,RU,63.05,179.3167,32.29,99,1666373564,96,0.85
104,Russell,US,32.3502,-85.1999,70.38,0,1666373440,26,3.44
105,Punta Arenas,CL,-53.15,-70.9167,53.71,0,1666373298,38,34.52
106,Butaritari,KI,3.0707,172.7902,80.64,63,1666373564,75,13.09
107,Tvøroyri,FO,61.5556,-6.8111,47.93,97,1666373565,82,26.8
108,Constitución,CL,-35.3333,-72.4167,61.54,5,1666373540,55,16.64
109,Sarakhs,IR,36.5449,61.1577,77.14,0,1666373565,23,0.0
110,Murray Bridge,AU,-35.1167,139.2667,58.33,13,1666373483,91,5.86
111,Puebloviejo,CO,10.9938,-74.2844,89.78,40,1666373565,70,9.22
112,Talnakh,RU,69.4865,88.3972,34.21,100,1666373566,97,15.59
113,Mtwara,TZ,-10.2667,40.1833,74.1,9,1666373566,79,9.48
114,Riyadh,SA,24.6877,46.7219,82.54,0,1666373318,12,9.01
115,Atambua,ID,-9.1061,124.8925,76.86,59,1666373566,84,1.36
116,Berlevåg,NO,70.8578,29.0864,32.0,0,1666373567,69,24.16
117,Sørland,NO,67.667,12.6934,42.66,100,1666373567,69,15.1
118,Nha Trang,VN,12.25,109.1833,75.2,60,1666373286,92,5.39
119,Mount Gambier,AU,-37.8333,140.7667,55.31,100,1666373527,100,6.91
120,Husavik,IS,66.0449,-17.3389,30.4,73,1666373567,81,7.02
121,Hervey Bay,AU,-25.2986,152.8535,69.03,100,1666373568,97,8.01
122,Hilo,US,19.7297,-155.09,81.28,0,1666373568,75,8.05
123,Henties Bay,NA,-22.116,14.2845,58.5,13,1666373569,91,5.64
124,Cap Malheureux,MU,-19.9842,57.6142,73.47,15,1666373569,74,7.0
125,Te Anau,NZ,-45.4167,167.7167,34.79,34,1666373569,93,0.56
126,Upernavik,GL,72.7868,-56.1549,18.3,99,1666373570,72,6.58
127,Barcelona,ES,41.3888,2.159,77.05,20,1666373514,69,14.97
128,Rome,US,43.2128,-75.4557,61.83,0,1666373570,29,12.66
129,Vaini,TO,-21.2,-175.2,71.76,100,1666373571,94,10.36
130,Itaúna,BR,-20.0753,-44.5764,82.15,98,1666373571,43,6.2
131,College,US,64.8569,-147.8028,34.59,100,1666373571,94,9.22
132,Qasigiannguit,GL,68.8193,-51.1922,41.25,100,1666373572,99,4.12
133,Jega,NG,12.2175,4.3792,86.58,54,1666373572,26,6.64
134,Nizhny Novgorod,RU,56.3287,44.002,36.91,0,1666373505,81,6.71
135,Bethel,US,41.3712,-73.414,63.55,0,1666373573,38,3.44
136,Taitung City,TW,22.7583,121.1444,78.48,96,1666373573,82,6.71
137,Armenia,AM,40.0,45.0,42.39,100,1666373453,89,2.91
138,Bobo-Dioulasso,BF,11.1771,-4.2979,90.05,20,1666373573,40,5.75
139,Saint-Philippe,RE,-21.3585,55.7679,71.19,47,1666373574,85,10.89
140,Grand Gaube,MU,-20.0064,57.6608,73.8,11,1666373574,74,7.0
141,Campos dos Goytacazes,BR,-21.75,-41.3,82.87,73,1666373454,62,21.03
142,Skellefteå,SE,64.7507,20.9528,42.01,100,1666373574,100,2.3
143,Jinchang,CN,38.4953,102.1739,46.92,87,1666373575,35,5.3
144,Los Llanos de Aridane,ES,28.6585,-17.9182,71.35,75,1666373575,87,6.91
145,East London,ZA,-33.0153,27.9116,69.93,83,1666373576,87,6.76
146,Lorengau,PG,-2.0226,147.2712,80.6,46,1666373576,77,5.7
147,Najrān,SA,17.4924,44.1277,75.85,0,1666373435,19,4.72
148,Norman Wells,CA,65.282,-126.8329,23.04,75,1666373576,100,0.0
149,Mar del Plata,AR,-38.0023,-57.5575,55.42,100,1666373577,85,20.71
150,Srandakan,ID,-7.9386,110.2506,75.54,100,1666373577,92,2.84
151,Oancea,RO,45.9167,28.1,45.63,1,1666373577,45,8.21
152,Provideniya,RU,64.3833,-173.3,33.84,92,1666373578,95,8.5
153,Castro,BR,-24.7911,-50.0119,65.19,99,1666373578,92,10.27
154,Purpe,RU,64.4803,76.6897,30.88,84,1666373578,83,17.65
155,Osa,RU,57.2829,55.4567,29.55,29,1666373580,78,5.55
156,Morro Bay,US,35.3658,-120.8499,66.15,18,1666373580,1,3.0
157,Kruisfontein,ZA,-34.0033,24.7314,60.89,100,1666373580,80,9.15
158,Hailar,CN,49.2,119.7,28.81,60,1666373581,83,5.1
159,Mahébourg,MU,-20.4081,57.7,73.69,40,1666373581,83,14.97
160,Teguise,ES,29.0605,-13.564,75.42,0,1666373581,69,14.97
161,Shenjiamen,CN,29.9576,122.298,69.44,16,1666373582,86,3.58
162,Isil'kul',RU,54.9109,71.2728,44.98,96,1666373582,77,5.59
163,Ostrovnoy,RU,68.0531,39.5131,31.96,100,1666373582,74,10.18
164,Sano,JP,36.3167,139.5833,61.75,99,1666373583,54,1.52
165,Finschhafen,PG,-6.6024,147.8681,78.78,98,1666373583,83,3.65
166,Palmer,US,42.1584,-72.3287,63.27,0,1666373584,32,1.99
167,Fortuna,US,40.5982,-124.1573,54.99,100,1666373584,85,3.44
168,Praia da Vitória,PT,38.7333,-27.0667,71.85,40,1666373584,60,20.56
169,Bredasdorp,ZA,-34.5322,20.0403,57.24,60,1666373585,74,5.37
170,Ixtapa,MX,20.7,-105.2,85.23,75,1666373585,70,5.01
171,Isangel,VU,-19.55,169.2667,73.22,92,1666373585,80,13.89
172,Moroni,KM,-11.7022,43.2551,75.06,58,1666373586,79,4.56
173,Vao,NC,-22.6667,167.4833,71.33,97,1666373586,62,20.94
174,Glubokiy,RU,48.5217,40.3258,39.79,39,1666373587,72,6.44
175,Sorong,ID,-0.8833,131.25,80.53,92,1666373587,81,6.22
176,Barrow,US,71.2906,-156.7887,26.62,100,1666373587,86,25.32
177,Roura,GF,4.7263,-52.3274,87.71,75,1666373588,66,8.05
178,Ceres,US,37.5949,-120.9577,70.12,0,1666373588,59,4.61
179,Geraldton,AU,-28.7667,114.6,54.01,16,1666373588,94,4.61
180,Havelock,US,34.8791,-76.9013,67.98,40,1666373589,54,9.22
181,Saint George,US,37.1041,-113.5841,67.78,0,1666373382,27,4.61
182,Laas,IT,46.6166,10.7002,52.36,100,1666373589,97,4.0
183,Sioux Lookout,CA,50.1001,-91.917,51.87,40,1666373589,66,9.22
184,Ewo,CG,-0.8725,14.8206,73.76,91,1666373590,84,2.46
185,Solnechnyy,RU,50.7214,136.6319,32.07,100,1666373590,63,4.23
186,Mackenzie,CA,55.2999,-123.1698,37.62,100,1666373433,70,6.91
187,Diofior,SN,14.1833,-16.6667,84.83,25,1666373591,64,12.84
188,Nogliki,RU,51.8333,143.1667,30.63,1,1666373591,70,11.32
189,Chapais,CA,49.7834,-74.8492,44.38,99,1666373572,67,14.94
190,Katobu,ID,-4.9408,122.5276,76.46,82,1666373592,91,2.75
191,Tomaszów Lubelski,PL,50.4477,23.4162,43.66,99,1666373592,58,8.7
192,Katsuura,JP,35.1333,140.3,68.92,67,1666373592,71,15.39
193,Skibbereen,IE,51.55,-9.2667,57.31,96,1666373592,92,25.26
194,Vardø,NO,70.3705,31.1107,30.18,0,1666373593,86,9.22
195,Broome,US,42.2506,-75.833,60.48,0,1666373593,35,9.22
196,Artyom,AZ,40.4723,50.333,57.34,100,1666373594,75,30.44
197,Haines Junction,CA,60.7522,-137.5108,26.55,100,1666373594,100,0.0
198,Tampakan,PH,6.4442,124.9264,75.4,100,1666373594,89,1.01
199,Cidreira,BR,-30.1811,-50.2056,70.57,37,1666373595,81,12.08
200,Botwood,CA,49.1499,-55.3482,54.9,100,1666373595,60,9.93
201,Labuhan,ID,-6.8844,112.2051,78.69,100,1666373595,86,7.83
202,Neiafu,TO,-18.65,-173.9833,72.28,75,1666373596,100,2.3
203,Deputatsky,RU,69.3,139.9,-5.91,44,1666373596,97,6.55
204,Rio Verde de Mato Grosso,BR,-18.9181,-54.8442,80.46,100,1666373596,72,8.03
205,Araripe,BR,-7.2125,-40.0461,91.6,72,1666373597,24,8.84
206,Gizo Government Station,SB,-8.103,156.8419,81.57,85,1666373597,78,5.12
207,Karpathos,GR,35.507,27.2132,66.16,20,1666373597,68,25.32
208,Faya,SA,18.3851,42.4509,64.51,2,1666373598,51,1.36
209,Quatre Cocos,MU,-20.2078,57.7625,73.51,27,1666373598,82,10.76
210,Heraclea,TR,37.5133,34.0467,53.94,72,1666373598,46,5.28
211,Yar-Sale,RU,66.8333,70.8333,29.84,88,1666373599,97,10.18
212,Cherskiy,RU,68.75,161.3,4.96,100,1666373599,94,7.81
213,Cañon City,US,38.441,-105.2424,73.56,0,1666373600,14,13.8
214,Gazli,UZ,40.1333,63.45,68.32,96,1666373600,17,11.54
215,Kuala Terengganu,MY,5.3302,103.1408,78.75,20,1666373600,94,2.3
216,Alamogordo,US,32.8995,-105.9603,74.39,0,1666373601,40,5.01
217,Cassilândia,BR,-19.1133,-51.7342,74.32,100,1666373601,82,12.33
218,New Norfolk,AU,-42.7826,147.0587,62.1,100,1666373601,90,1.16
219,Klaksvík,FO,62.2266,-6.589,45.52,100,1666373602,75,18.07
220,Panabá,MX,21.2833,-88.2667,79.05,49,1666373431,49,11.77
221,Tasiilaq,GL,65.6145,-37.6368,32.16,100,1666373602,98,4.92
222,Mil'kovo,RU,54.7167,158.6167,28.54,76,1666373603,73,3.83
223,Novaya Igirma,RU,57.1334,103.9112,29.91,100,1666373603,88,3.83
224,Torbay,CA,47.6666,-52.7314,57.27,75,1666373438,72,12.66
225,Chokurdakh,RU,70.6333,147.9167,11.3,100,1666373604,94,12.3
226,Edson,CA,53.5835,-116.4356,39.34,75,1666373406,65,10.36
227,Shimoda,JP,34.6667,138.95,64.11,95,1666373604,73,13.0
228,Panvel,IN,18.9833,73.1,82.47,34,1666373604,78,4.79
229,Buraidah,SA,26.326,43.975,82.85,0,1666373437,13,5.32
230,Iquitos,PE,-3.7481,-73.2472,87.84,75,1666373605,70,5.75
231,Chilca,PE,-12.5211,-76.7372,63.18,96,1666373605,76,8.05
232,Nabire,ID,-3.3667,135.4833,75.47,100,1666373605,91,1.32
233,Abu Samrah,SY,35.3029,37.1841,68.65,27,1666373606,61,6.38
234,Pisco,PE,-13.7,-76.2167,64.45,40,1666373606,77,10.36
235,Fort Nelson,CA,58.8053,-122.7002,36.99,75,1666373607,56,5.75
236,Kahului,US,20.8947,-156.47,80.83,0,1666373595,68,5.75
237,Rive-de-Gier,FR,45.5307,4.6213,67.91,100,1666373607,87,5.39
238,Saint Paul Harbor,US,57.79,-152.4072,42.31,0,1666373607,61,8.05
239,Bay Roberts,CA,47.5999,-53.2648,58.33,77,1666373608,66,5.01
240,Zhigansk,RU,66.7697,123.3711,13.71,92,1666373608,98,4.74
241,Yuzhnyy,RU,53.2542,83.6936,50.38,0,1666373608,57,11.18
242,San Luis,AR,-33.295,-66.3356,80.8,2,1666373609,15,10.94
243,Biltine,TD,14.5333,20.9167,91.2,98,1666373609,20,4.32
244,Ajuchitlán,MX,20.7167,-100.0167,67.39,66,1666373609,31,3.6
245,Kilindoni,TZ,-7.9139,39.6668,76.6,43,1666373609,73,15.17
246,Navsari,IN,20.9524,72.9324,78.3,0,1666373610,61,7.38
247,Mahibadhoo,MV,3.7833,72.9667,81.97,100,1666373611,76,15.35
248,Gävle,SE,60.6745,17.1417,35.38,100,1666373611,84,1.01
249,San Cristobal,VE,7.7669,-72.225,77.18,64,1666373612,70,1.43
250,Tiksi,RU,71.6872,128.8694,7.2,48,1666373612,96,6.08
251,Swan Hill,AU,-35.3378,143.5544,60.91,83,1666373612,92,3.78
252,Vila Franca do Campo,PT,37.7167,-25.4333,68.41,70,1666373613,71,18.84
253,Ocós,GT,14.5094,-92.1933,84.38,68,1666373613,72,3.53
254,Delano,US,35.7688,-119.247,79.32,0,1666373613,35,0.0
255,Herat Province,AF,34.5,62.0,65.46,75,1666373614,16,7.16
256,Hambantota,LK,6.1241,81.1185,78.96,100,1666373525,78,7.87
257,Rio Grande,BR,-32.035,-52.0986,68.11,100,1666373614,92,17.31
258,Conceição da Barra,BR,-18.5933,-39.7322,80.89,89,1666373614,64,12.39
259,Coahuayana Viejo,MX,18.7333,-103.6833,82.69,100,1666373615,71,2.66
260,Severo-Yeniseyskiy,RU,60.3725,93.0408,31.59,100,1666373616,91,6.78
261,Ovalle,CL,-30.5983,-71.2003,84.0,0,1666373616,23,10.87
262,Sakhnovshchyna,UA,49.1517,35.872,40.46,7,1666373616,68,4.76
263,Longyearbyen,SJ,78.2186,15.6401,22.84,20,1666373617,74,14.97
264,Sokna,NO,60.24,9.9235,39.13,100,1666373617,77,0.31
265,Santa Rosa,PH,14.3122,121.1114,82.38,70,1666373533,90,3.49
266,Necochea,AR,-38.5473,-58.7368,54.09,90,1666373617,63,20.02
267,Pevek,RU,69.7008,170.3133,23.68,100,1666373618,95,2.06
268,Malpe,IN,13.35,74.7167,78.1,99,1666373619,91,4.68
269,Lang Son,VN,21.8333,106.7333,66.52,96,1666373619,94,2.86
270,Tateyama,JP,34.9833,139.8667,70.11,82,1666373620,67,18.7
271,King City,US,36.2127,-121.126,86.92,2,1666373620,17,1.81
272,Hasaki,JP,35.7333,140.8333,63.0,81,1666373621,68,16.93
273,Souillac,MU,-20.5167,57.5167,73.78,40,1666373622,83,14.97
274,Bom Sucesso,BR,-21.0331,-44.7581,80.83,98,1666373622,44,9.64
275,Tiznit Province,MA,29.5833,-9.5,81.66,10,1666373622,24,2.82
276,Sinnamary,GF,5.3833,-52.95,86.25,92,1666373623,64,10.25
277,Havøysund,NO,70.9963,24.6622,35.83,100,1666373623,96,12.26
278,Kamaishi,JP,39.2667,141.8833,56.14,39,1666373623,79,6.85
279,Kargasok,RU,59.0556,80.8572,37.04,63,1666373624,93,10.56
280,Asău,RO,46.4333,26.4,42.28,18,1666373624,55,4.47
281,Rosetta,EG,31.4044,30.4164,71.38,0,1666373624,67,11.63
282,Farmington,US,36.7281,-108.2187,65.21,0,1666373441,34,5.75
283,Kuril'sk,RU,45.2333,147.8833,51.03,100,1666373625,88,11.18
284,Guerrero Negro,MX,27.9769,-114.0611,74.59,23,1666373625,65,4.0
285,Sechura,PE,-5.5569,-80.8222,76.26,73,1666373625,54,13.29
286,Santa Isabel Rio Negro,BR,-0.4139,-65.0192,81.1,100,1666373626,78,0.76
287,Boyolangu,ID,-8.1181,111.8935,73.98,100,1666373626,96,1.16
288,Pacific Grove,US,36.6177,-121.9166,57.42,40,1666373626,83,4.0
289,Gillette,US,44.2911,-105.5022,66.06,0,1666373336,17,19.57
290,Chernolesskoye,RU,44.7156,43.7133,47.61,5,1666373627,58,8.61
291,Tamiahua,MX,21.2667,-97.45,76.33,79,1666373627,74,6.13
292,Barabai,ID,-2.5833,115.3833,74.21,100,1666373627,97,1.52
293,Tadine,NC,-21.55,167.8833,71.06,100,1666373628,70,17.11
294,Chichawatni,PK,30.5333,72.7,73.38,0,1666373628,28,5.41
295,Esperance,AU,-33.8667,121.9,57.38,100,1666373629,75,5.59
296,Moyo,UG,3.6609,31.7247,70.07,100,1666373629,86,1.74
297,Mossamedes,AO,-15.1961,12.1522,67.21,24,1666373630,81,5.48
298,Río Hondo,GT,15.0667,-89.5833,79.86,75,1666373631,61,4.61
299,Houma,US,29.5958,-90.7195,79.02,0,1666373349,61,5.32
300,Olafsvik,IS,64.8945,-23.7142,39.11,99,1666373631,73,5.97
301,Portland,US,45.5234,-122.6762,54.36,100,1666373445,81,5.75
302,Rafaela,AR,-31.2503,-61.4867,91.0,0,1666373631,23,3.0
303,Birigui,BR,-21.2886,-50.34,82.51,40,1666373632,57,9.22
304,Brigantine,US,39.4101,-74.3646,66.04,0,1666373433,44,3.44
305,Kailua,US,21.4022,-157.7394,78.06,3,1666373632,88,10.25
306,Port-Cartier,CA,50.0334,-66.8654,48.31,81,1666373632,60,15.03
307,Saint-Pierre,RE,-21.3393,55.4781,71.91,75,1666373633,73,2.3
308,Victor Harbor,AU,-35.5667,138.6167,59.0,12,1666373633,88,3.65
309,Moramanga,MG,-18.9333,48.2,55.78,49,1666373633,98,1.81
310,Tuatapere,NZ,-46.1333,167.6833,36.93,5,1666373634,89,3.76
311,Jiaojiang,CN,28.6803,121.4428,66.99,62,1666373634,88,5.19
312,Malinovoye Ozero,RU,51.6753,79.7825,53.65,100,1666373636,41,12.46
313,Port Hardy,CA,50.6996,-127.4199,48.38,100,1666373636,93,3.44
314,Ligayan,PH,4.6533,119.4706,83.21,90,1666373637,74,3.78
315,Port Blair,IN,11.6667,92.75,78.84,75,1666373597,89,2.3
316,Hong Kong,HK,22.2855,114.1577,77.38,100,1666373413,79,5.99
317,Valparaíso,CL,-33.0393,-71.6273,77.23,0,1666373451,75,11.5
318,Egvekinot,RU,66.3167,-179.1667,24.93,100,1666373637,95,6.26
319,Maceió,BR,-9.6658,-35.7353,85.44,20,1666373638,58,14.97
320,Cayenne,GF,4.9333,-52.3333,87.84,75,1666373638,66,8.05
321,Fairbanks,US,64.8378,-147.7164,34.61,100,1666373638,94,9.22
322,Bathsheba,BB,13.2167,-59.5167,88.41,40,1666373639,66,16.11
323,Clyde River,CA,70.4692,-68.5914,26.83,100,1666373639,93,13.8
324,North Bend,US,43.4065,-124.2243,59.23,100,1666373430,98,3.44
325,Chapleau,CA,47.8405,-83.4034,42.89,40,1666373640,81,11.5
326,Mangai,CD,-4.05,19.5333,72.48,90,1666373640,90,1.1
327,Labytnangi,RU,66.6572,66.4183,29.05,100,1666373640,93,3.36
328,Bairnsdale,AU,-37.8333,147.6167,62.06,100,1666373641,96,3.74
329,Cap-aux-Meules,CA,47.3821,-61.8597,55.45,40,1666373641,71,14.97
330,Lac-Mégantic,CA,45.5834,-70.8823,51.51,6,1666373413,46,8.48
331,Dédougou,BF,12.4667,-3.4667,89.24,58,1666373642,26,4.18
332,Vanavara,RU,60.34,102.2797,28.26,94,1666373642,83,3.22
333,Nara,JP,34.6851,135.8049,64.49,100,1666373643,58,3.87
334,Padang,ID,-0.9492,100.3543,77.43,100,1666373643,86,2.8
335,Sitka,US,57.0531,-135.33,44.49,75,1666373594,87,4.61
336,Vinh,VN,18.6667,105.6667,70.83,100,1666373463,91,8.86
337,Parintins,BR,-2.6283,-56.7358,100.11,87,1666373643,31,4.23
338,Vila Velha,BR,-20.3297,-40.2925,79.95,83,1666373565,74,13.0
339,Inverell,AU,-29.7833,151.1167,62.67,100,1666373644,99,1.99
340,Pangnirtung,CA,66.1451,-65.7125,32.0,100,1666373644,80,9.22
341,Onega,RU,63.9061,38.1404,34.25,34,1666373645,83,7.16
342,Koumac,NC,-20.5667,164.2833,73.22,100,1666373645,78,5.46
343,Fevik,NO,58.3794,8.6766,44.37,100,1666373645,80,16.24
344,Sandnessjøen,NO,66.0217,12.6316,35.71,20,1666373646,100,2.3
345,Kozhva,RU,65.1073,57.0459,33.98,100,1666373646,97,13.09
346,Aleksandrov Gay,RU,50.147,48.5704,46.78,98,1666373646,71,11.92
347,Oistins,BB,13.0667,-59.5333,87.89,40,1666373647,66,16.11
348,Dunedin,NZ,-45.8742,170.5036,40.8,5,1666373549,78,4.9
349,Araouane,ML,18.9048,-3.5265,90.84,99,1666373647,13,5.3
350,Corinth,GR,37.9407,22.9573,67.89,0,1666373648,68,5.1
351,Vostok,RU,46.4856,135.8833,41.4,99,1666373648,97,2.62
352,Hamilton,US,39.1834,-84.5333,69.76,0,1666373433,33,12.66
353,Dawei,MM,14.0833,98.2,75.09,67,1666373648,90,3.36
354,Jiuquan,CN,39.7432,98.5174,42.28,0,1666373649,37,2.75
355,Requena,ES,39.4883,-1.1004,66.79,100,1666373649,73,6.62
356,Miquelon,PM,47.0975,-56.3814,57.2,100,1666373650,80,13.96
357,Slavsk,RU,55.0425,21.677,45.34,100,1666373650,60,8.32
358,Port Macquarie,AU,-31.4333,152.9167,64.89,99,1666373518,88,14.97
359,Svetlaya,RU,46.5389,138.3297,45.16,79,1666373650,85,4.54
360,Ilhéus,BR,-14.7889,-39.0494,81.0,36,1666373472,61,8.63
361,Sault Ste. Marie,CA,46.5168,-84.3333,57.76,0,1666373417,50,16.11
362,Shakiso,ET,5.75,38.9167,59.14,91,1666373651,97,2.55
363,Puerto Nariño,CO,-3.7703,-70.3831,85.95,98,1666373651,68,3.6
364,Manavgat,TR,36.7867,31.4431,69.26,0,1666373652,42,7.11
365,Viedma,AR,-40.8135,-62.9967,56.7,90,1666373652,34,16.53
366,Latung,PH,5.5,120.8833,83.07,100,1666373652,74,3.87
367,Samfya,ZM,-11.3649,29.5565,83.01,43,1666373653,26,9.62
368,Yulara,AU,-25.2406,130.9889,72.91,53,1666373653,23,1.45
369,Ahome,MX,25.9167,-109.1833,82.35,10,1666373561,44,3.02
370,General Salgado,BR,-20.6483,-50.3606,81.77,100,1666373653,53,16.13
371,Oussouye,SN,12.485,-16.5469,89.78,66,1666373654,74,8.88
372,Ilulissat,GL,69.2167,-51.1,41.02,100,1666373654,81,11.5
373,Örebro,SE,59.2741,15.2066,46.92,40,1666373655,87,10.36
374,Raudeberg,NO,61.9875,5.1352,41.67,100,1666373655,48,2.84
375,Taoudenni,ML,22.6783,-3.9836,90.36,71,1666373655,11,11.03
376,Omboué,GA,-1.5746,9.2618,77.22,67,1666373655,85,8.39
377,Virbalis,LT,54.6267,22.8169,44.83,100,1666373656,63,9.44
378,Vuktyl,RU,63.8567,57.3094,31.05,100,1666373656,95,13.73
379,Show Low,US,34.2542,-110.0298,66.49,0,1666373657,43,10.36
380,Dingcheng,CN,32.1272,115.0394,63.63,0,1666373657,40,0.63
381,Coyhaique,CL,-45.5752,-72.0662,53.55,0,1666373657,32,9.22
382,Bundaberg,AU,-24.85,152.35,70.09,75,1666373624,99,18.41
383,Birao,CF,10.2849,22.7882,77.58,86,1666373658,63,4.59
384,Aksarka,RU,66.5606,67.7975,28.67,100,1666373658,95,7.09
385,Evensk,RU,61.95,159.2333,10.42,78,1666373658,75,8.81
386,Natal,BR,-5.795,-35.2094,83.01,22,1666373427,57,14.14
387,Tessalit,ML,20.1986,1.0114,86.92,94,1666373659,12,7.14
388,Olinda,BR,-8.0089,-34.8553,82.13,40,1666373659,65,8.05
389,Inhambane,MZ,-23.865,35.3833,75.18,20,1666373659,78,4.61
390,São José da Coroa Grande,BR,-8.8978,-35.1478,80.42,29,1666373660,66,9.31
391,Sur,OM,22.5667,59.5289,80.11,0,1666373660,52,5.23
392,Nioro,GM,13.35,-15.75,87.1,53,1666373660,65,1.48
393,Skjervøy,NO,70.0311,20.9714,37.4,100,1666373662,71,12.64
394,Lhokseumawe,ID,5.1801,97.1507,77.81,100,1666373667,85,2.71
395,Oga,IT,46.4631,10.347,48.81,100,1666373667,96,4.68
396,Angoche,MZ,-16.2325,39.9086,76.91,1,1666373668,79,13.65
397,Harper,LR,4.375,-7.7169,78.55,88,1666373668,83,5.75
398,Dapitan,PH,8.6464,123.4208,80.51,93,1666373668,85,8.93
399,Chengzhong,CN,30.95,113.55,63.82,3,1666373669,41,4.03
400,Nova Viçosa,BR,-17.8919,-39.3719,80.42,90,1666373638,65,15.21
401,Ejido,VE,8.5514,-71.2375,73.96,65,1666373669,87,4.27
402,La Cumbre,AR,-30.982,-64.4914,78.19,0,1666373669,23,2.89
403,Jacareacanga,BR,-6.2222,-57.7528,96.53,93,1666373670,40,1.83
404,Terney,RU,45.0503,136.6092,49.73,26,1666373670,75,4.63
405,Burnie,AU,-41.0667,145.9167,59.94,100,1666373576,99,5.59
406,Half Moon Bay,US,37.4636,-122.4286,66.06,100,1666373670,87,5.75
407,Kangaatsiaq,GL,68.3065,-53.4641,37.36,100,1666373671,92,13.73
408,Cocobeach,GA,1.0002,9.5823,78.98,23,1666373671,82,6.58
409,Nizwá,OM,22.9333,57.5333,77.5,0,1666373671,19,3.22
410,Province of Mantua,IT,45.1667,10.7833,65.44,100,1666373672,86,5.01
411,Jiwani,PK,25.05,61.7417,81.18,0,1666373672,68,6.71
412,Sochi,RU,43.6,39.7303,48.29,8,1666373673,73,5.95
413,Marathon,US,44.9,-89.7668,63.64,0,1666373674,43,14.97
414,Dingli,MT,35.8614,14.3822,69.82,2,1666373674,63,5.53
415,Bac Lieu,VN,9.285,105.7244,78.98,74,1666373674,86,10.47
416,Flinders,AU,-34.5833,150.8552,66.18,98,1666373675,91,5.99
417,Nanga Eboko,CM,4.6833,12.3667,67.39,97,1666373675,99,1.88
418,Wattegama,LK,6.7989,81.4808,74.71,100,1666373675,93,1.97
419,Maroantsetra,MG,-15.4333,49.7333,68.85,8,1666373676,83,2.89
420,Nevers,FR,46.9896,3.159,65.95,0,1666373676,82,2.3
421,Aykhal,RU,66.0,111.5,23.56,100,1666373676,91,16.28
422,Coffeyville,US,37.0373,-95.6164,78.66,0,1666373677,27,17.27
423,Adrar,MR,20.5022,-10.0711,91.53,95,1666373677,11,11.48
424,Dillon,US,34.4166,-79.3712,73.26,0,1666373677,28,2.84
425,Tahe,CN,52.3333,124.7333,30.2,100,1666373678,68,4.97
426,Arcata,US,40.8665,-124.0828,55.26,100,1666373678,80,3.44
427,Vestmannaeyjar,IS,63.4427,-20.2734,45.59,75,1666373678,76,5.75
428,San Patricio,US,28.017,-97.5169,82.08,0,1666373679,38,11.01
429,Zyryanka,RU,65.75,150.85,9.39,100,1666373679,87,4.41
430,Maniitsoq,GL,65.4167,-52.9,37.11,100,1666373679,95,33.46
431,Shar,KZ,49.5886,81.0453,51.39,95,1666373680,47,16.49
432,Bougouni,ML,11.417,-7.479,84.15,50,1666373680,48,2.91
433,Hobyo,SO,5.3505,48.5268,78.58,40,1666373680,82,14.52
434,Gigmoto,PH,13.7796,124.39,80.78,98,1666373681,86,5.46
435,Lianzhou,CN,24.7811,112.3825,69.66,14,1666373682,46,3.44
436,Bayan,CN,46.0833,127.4,38.37,84,1666373682,66,9.35
437,Carutapera,BR,-1.195,-46.02,86.14,95,1666373682,60,8.52
438,Saint Anthony,US,45.0205,-93.218,65.89,0,1666373683,43,10.36
439,Lake Charles,US,30.2131,-93.2044,82.38,0,1666373507,53,14.97
440,Fare,PF,-16.7,-151.0167,79.25,0,1666373683,76,17.52
441,Nadym,RU,65.5333,72.5167,30.9,100,1666373683,96,9.84
442,Eureka,US,40.8021,-124.1637,55.26,26,1666373684,61,1.01
443,Gambēla,ET,8.25,34.5833,71.65,52,1666373684,94,3.83
444,Huarmey,PE,-10.0681,-78.1522,67.75,76,1666373684,68,10.6
445,Samarai,PG,-10.6167,150.6667,80.64,69,1666373685,79,2.71
446,Gushikawa,JP,26.3544,127.8686,78.03,100,1666373685,100,8.05
447,Mujiayingzi,CN,42.1167,118.7833,41.68,50,1666373685,57,3.69
448,Pangoa,PE,-12.1167,-73.0,81.41,100,1666373689,78,2.48
449,Kumul,CN,42.8,93.45,47.64,0,1666373689,36,1.88
450,Prijepolje,RS,43.3719,19.6406,53.82,85,1666373689,49,4.7
451,Champerico,GT,14.3,-91.9167,82.49,45,1666373690,73,2.82
452,Puerto Berrío,CO,6.4916,-74.4033,91.35,40,1666373690,48,3.58
453,Cairns,AU,-16.9167,145.7667,75.07,100,1666373690,97,9.22
454,Konstantinovskoye,RU,45.2992,42.6367,45.18,63,1666373691,55,11.14
455,Korla,CN,41.7597,86.1469,51.46,0,1666373691,31,4.72
456,Praia,CV,14.9215,-23.5087,88.34,0,1666373691,48,9.22
457,Hofn,IS,64.2539,-15.2082,41.02,75,1666373692,81,3.44
458,Roebourne,AU,-20.7833,117.1333,75.81,0,1666373692,64,13.06
459,Poya,NC,-21.35,165.15,71.46,100,1666373692,80,6.89
460,Horki,BY,54.2861,30.9842,40.53,100,1666373693,79,4.43
461,Boralday,KZ,43.3578,76.8594,55.6,37,1666373693,34,3.8
462,Ulaangom,MN,49.9811,92.0667,34.2,68,1666373694,70,1.07
463,Margate,GB,51.3813,1.3862,64.9,54,1666373694,78,7.0
464,Zapolyarnyy,RU,69.4154,30.8136,29.48,100,1666373694,76,12.44
465,Wajima,JP,37.4,136.9,66.69,85,1666373694,74,18.59
466,Sturgeon Falls,CA,46.3646,-79.9326,53.89,100,1666373413,59,15.32
467,Leirvik,NO,59.7798,5.5005,52.21,75,1666373695,62,13.8
468,Northam,GB,51.0333,-4.2167,59.4,90,1666373696,96,15.59
469,Ankang,CN,32.68,109.0172,60.46,12,1666373696,75,0.69
470,Banjar,ID,-8.19,114.9675,77.86,100,1666373696,86,1.99
471,Pindiga,NG,9.9833,10.9333,80.87,96,1666373696,33,4.68
472,Pozoblanco,ES,38.3791,-4.8483,61.48,100,1666373697,73,4.54
473,Camacha,PT,33.0833,-16.3333,67.42,20,1666373697,78,3.44
474,Rāmpura,IN,30.25,75.2333,72.75,0,1666373697,47,6.24
475,Kinablangan,PH,7.6947,126.5503,78.66,98,1666373698,85,4.47
476,Meulaboh,ID,4.1363,96.1285,74.95,100,1666373698,87,2.73
477,Kaeo,NZ,-35.1,173.7833,55.33,51,1666373698,95,10.18
478,Kawhia,NZ,-38.0651,174.8183,44.17,22,1666373699,82,5.19
479,Belmonte,BR,-15.8631,-38.8828,79.79,93,1666373699,66,10.09
480,Lebu,CL,-37.6167,-73.65,53.33,0,1666373646,60,18.7
481,Ternate,ID,0.8,127.4,81.46,78,1666373700,78,2.62
482,Inverness,GB,57.4791,-4.224,53.8,100,1666373598,98,3.44
483,General Roca,AR,-39.0333,-67.5833,53.67,99,1666373700,52,5.17
484,Shitanjing,CN,39.2342,106.3439,45.1,9,1666373700,34,3.83
485,Acaraú,BR,-2.8856,-40.12,85.41,82,1666373701,60,21.12
486,Maltahöhe,NA,-24.8333,16.9833,74.3,96,1666373701,41,10.96
487,Pandan Niog,PH,6.2282,120.5631,83.01,83,1666373702,74,1.05
488,Itacoatiara,BR,-3.1431,-58.4442,97.03,97,1666373449,39,3.22
489,Hudson Bay,CA,52.85,-102.3842,48.99,97,1666373702,49,9.64
490,Liuzhou,CN,24.3126,109.3892,76.01,75,1666373703,51,4.88
491,Atherton,GB,53.5237,-2.4935,59.22,98,1666373703,88,1.01
492,Saint-Joseph,RE,-21.3667,55.6167,70.18,37,1666373703,83,10.04
493,Barra do Garças,BR,-15.89,-52.2567,79.38,100,1666373704,78,11.5
494,Magadan,RU,59.5667,150.8,17.94,71,1666373704,68,11.23
495,Taraz,KZ,42.9,71.3667,48.61,32,1666373704,57,4.47
496,Dori,BF,14.0354,-0.0345,92.52,46,1666373705,16,3.91
497,Wanning,CN,18.8003,110.3967,75.72,99,1666373705,92,8.55
498,Alofi,NU,-19.0595,-169.9187,69.69,59,1666373706,100,3.44
499,Harrison,US,30.4091,-89.0436,75.76,0,1666373496,47,8.05
500,Hokitika,NZ,-42.7167,170.9667,50.67,85,1666373706,79,3.22
501,Portobelo,PA,9.55,-79.65,88.11,57,1666373707,75,3.53
502,Mbengwi,CM,6.0167,10.0,64.47,100,1666373707,93,0.94
503,Carlisle,US,40.2015,-77.1889,64.08,25,1666373707,29,1.01
504,Marzuq,YE,14.4,46.4667,70.95,0,1666373708,53,4.74
505,Aras,ES,42.5617,-2.356,61.23,75,1666373708,63,8.05
506,Iquique,CL,-20.2208,-70.1431,64.44,3,1666373502,66,6.33
507,Weligama,LK,5.9667,80.4167,76.42,100,1666373709,89,8.08
508,Kholodnyy,RU,62.7167,147.95,-10.75,22,1666373709,95,2.19
509,Vanimo,PG,-2.6741,141.3028,77.77,100,1666373710,86,4.25
510,Abu Kamal,SY,34.4506,40.9171,73.11,95,1666373710,50,3.24
511,Salalah,OM,17.0151,54.0924,80.69,20,1666373711,69,3.44
512,Launceston,AU,-41.45,147.1667,63.16,100,1666373712,94,4.61
513,Grindavik,IS,63.8424,-22.4338,40.95,0,1666373712,81,12.66
514,Port Pirie,AU,-33.1833,138.0167,58.89,6,1666373712,91,1.43
515,Cerro Azul,MX,21.2,-97.7333,75.7,89,1666373713,74,5.53
516,Boddam,GB,57.4667,-1.7833,53.98,100,1666373713,94,14.23
517,Verkhoyansk,RU,67.5447,133.385,-8.07,70,1666373714,100,1.39
518,Winneba,GH,5.3511,-0.6231,78.57,25,1666373714,85,11.39
519,Norrtälje,SE,59.758,18.705,49.01,100,1666373480,89,1.83
520,Mugur-Aksy,RU,50.35,90.5,29.26,46,1666373714,68,5.48
521,Mangaratiba,BR,-22.9597,-44.0406,83.26,97,1666373715,83,1.74
522,Laguna,US,38.421,-121.4238,82.98,0,1666373715,60,3.44
523,Hay River,CA,60.8156,-115.7999,37.38,100,1666373715,87,4.61
524,Flin Flon,CA,54.7682,-101.865,42.64,40,1666373716,56,13.8
525,Mahenge,TZ,-8.6833,36.7167,73.18,51,1666373716,40,8.5
526,Cururupu,BR,-1.8283,-44.8683,85.28,87,1666373716,64,6.96
527,Piaçabuçu,BR,-10.4056,-36.4344,81.05,44,1666373717,64,11.03
528,Ulladulla,AU,-35.35,150.4667,61.7,91,1666373717,97,5.39
529,Alugan,PH,12.2188,125.4808,81.3,97,1666373717,81,6.42
530,Mount Isa,AU,-20.7333,139.5,75.42,0,1666373718,31,8.05
531,Marabu,MY,4.4148,114.0089,78.94,40,1666373718,94,10.36
532,Antofagasta,CL,-23.65,-70.4,63.68,38,1666373687,63,7.83
533,Warren,US,39.4334,-84.1666,69.04,0,1666373716,33,16.11
534,Øystese,NO,60.3882,6.1925,49.57,99,1666373719,73,6.22
535,Mounana,GA,-1.4085,13.1586,72.27,100,1666373719,89,1.99
536,Santa Cecília,BR,-26.9608,-50.4269,65.71,43,1666373719,71,7.99
537,Tibiao,PH,11.2915,122.0354,79.81,89,1666373720,81,3.49
538,Port Lincoln,AU,-34.7333,135.8667,56.91,80,1666373721,84,3.51
539,Chimbote,PE,-9.0853,-78.5783,66.07,89,1666373544,71,10.0
540,Şırnak,TR,37.5228,42.4594,51.87,100,1666373721,75,5.46
541,Lagos,NG,6.5833,3.75,84.52,57,1666373721,87,3.58
542,Catuday,PH,16.2923,119.8062,78.71,98,1666373722,80,1.99
543,Sibolga,ID,1.7427,98.7792,75.81,100,1666373722,90,3.49
544,Nanortalik,GL,60.1432,-45.2371,39.63,100,1666373722,91,17.18
545,Neepawa,CA,50.2289,-99.4664,50.4,73,1666373723,34,12.68
546,Jalu,LY,29.0331,21.5482,74.17,62,1666373723,41,8.79
547,Sohag,EG,26.557,31.6948,77.5,0,1666373724,33,10.22
